{"type":"FeatureCollection","features":[{"type":"Feature","id":1,"geometry":{"type":"Point","coordinates":[79.867772020000075,18.438767401000064]},"properties":{"OBJECTID":1,"name":"Bhupalpally  ","type":"Nagar Panchayat","F2011_population":42387,"State":"Telangana","District":"Warangal"}},{"type":"Feature","id":2,"geometry":{"type":"Point","coordinates":[79.995543000000055,17.608012900000062]},"properties":{"OBJECTID":2,"name":"Mahabubabad  ","type":"Municipality","F2011_population":42851,"State":"Telangana","District":"Warangal"}},{"type":"Feature","id":3,"geometry":{"type":"Point","coordinates":[79.700720000000047,18.198410000000024]},"properties":{"OBJECTID":3,"name":"Parakal  ","type":"Nagar Panchayat","F2011_population":29794,"State":"Telangana","District":"Warangal"}},{"type":"Feature","id":4,"geometry":{"type":"Point","coordinates":[79.611362300000053,17.974506900000051]},"properties":{"OBJECTID":4,"name":"Warangal     ","type":"Municipal Corporation","F2011_population":992333,"State":"Telangana","District":"Warangal"}},{"type":"Feature","id":5,"geometry":{"type":"Point","coordinates":[79.154900000000055,17.725300000000061]},"properties":{"OBJECTID":5,"name":"Janagaon   ","type":"Municipality","F2011_population":52394,"State":"Telangana","District":"Warangal"}},{"type":"Feature","id":6,"geometry":{"type":"Point","coordinates":[79.892270000000053,17.927860000000067]},"properties":{"OBJECTID":6,"name":"Narasampet  ","type":"Nagar Panchayat","F2011_population":30963,"State":"Telangana","District":"Warangal"}},{"type":"Feature","id":7,"geometry":{"type":"Point","coordinates":[79.400247700000079,18.202509400000054]},"properties":{"OBJECTID":7,"name":"Huzurabad  ","type":"Nagar Panchayat","F2011_population":37665,"State":"Telangana","District":"Karimnagar"}},{"type":"Feature","id":8,"geometry":{"type":"Point","coordinates":[79.211158627000032,18.130183315000068]},"properties":{"OBJECTID":8,"name":"Husnabad  ","type":"Nagar Panchayat","F2011_population":22082,"State":"Telangana","District":"Karimnagar"}},{"type":"Feature","id":9,"geometry":{"type":"Point","coordinates":[79.452852000000064,18.295428000000072]},"properties":{"OBJECTID":9,"name":"Jammikunta  ","type":"Nagar Panchayat","F2011_population":32645,"State":"Telangana","District":"Karimnagar"}},{"type":"Feature","id":10,"geometry":{"type":"Point","coordinates":[78.91491049900003,18.793687654000053]},"properties":{"OBJECTID":10,"name":"Jagityal  ","type":"Municipality","F2011_population":103930,"State":"Telangana","District":"Karimnagar"}},{"type":"Feature","id":11,"geometry":{"type":"Point","coordinates":[78.711860000000058,18.821540000000027]},"properties":{"OBJECTID":11,"name":"Korutla  ","type":"Municipality","F2011_population":66504,"State":"Telangana","District":"Karimnagar"}},{"type":"Feature","id":12,"geometry":{"type":"Point","coordinates":[78.625630000000058,18.847240000000056]},"properties":{"OBJECTID":12,"name":"Metpalli  ","type":"Municipality","F2011_population":50902,"State":"Telangana","District":"Karimnagar"}},{"type":"Feature","id":13,"geometry":{"type":"Point","coordinates":[78.810480000000041,18.388650000000041]},"properties":{"OBJECTID":13,"name":"Sircilla  ","type":"Municipality","F2011_population":83186,"State":"Telangana","District":"Karimnagar"}},{"type":"Feature","id":14,"geometry":{"type":"Point","coordinates":[79.474000000000046,18.755000000000052]},"properties":{"OBJECTID":14,"name":"Ramagundam  ","type":"Municipal Corporation","F2011_population":237559,"State":"Telangana","District":"Karimnagar"}},{"type":"Feature","id":15,"geometry":{"type":"Point","coordinates":[79.383217886000068,18.614195676000065]},"properties":{"OBJECTID":15,"name":"Peddapally  ","type":"Nagar Panchayat","F2011_population":41171,"State":"Telangana","District":"Karimnagar"}},{"type":"Feature","id":16,"geometry":{"type":"Point","coordinates":[80.143680000000074,17.247670000000028]},"properties":{"OBJECTID":16,"name":"Khammam  ","type":"Municipal Corporation","F2011_population":305000,"State":"Telangana","District":"Khammam"}},{"type":"Feature","id":17,"geometry":{"type":"Point","coordinates":[78.868940000000066,18.465230000000076]},"properties":{"OBJECTID":17,"name":"Vemulavada  ","type":"Nagar Panchayat","F2011_population":33706,"State":"Telangana","District":"Karimnagar"}},{"type":"Feature","id":18,"geometry":{"type":"Point","coordinates":[80.366929500000083,16.923506200000077]},"properties":{"OBJECTID":18,"name":"Madhira  ","type":"Nagar Panchayat","F2011_population":29222,"State":"Telangana","District":"Khammam"}},{"type":"Feature","id":19,"geometry":{"type":"Point","coordinates":[80.826710000000048,17.930230000000051]},"properties":{"OBJECTID":19,"name":"Manuguru   ","type":"Municipality","F2011_population":32065,"State":"Telangana","District":"Khammam"}},{"type":"Feature","id":20,"geometry":{"type":"Point","coordinates":[80.614786159000062,17.552419018000023]},"properties":{"OBJECTID":20,"name":"Kothagudem   ","type":"Municipality","F2011_population":79817,"State":"Telangana","District":"Khammam"}},{"type":"Feature","id":21,"geometry":{"type":"Point","coordinates":[80.705090000000041,17.601840000000038]},"properties":{"OBJECTID":21,"name":"Palwancha  ","type":"Municipality","F2011_population":80199,"State":"Telangana","District":"Khammam"}},{"type":"Feature","id":22,"geometry":{"type":"Point","coordinates":[80.321460000000059,17.590640000000064]},"properties":{"OBJECTID":22,"name":"Yellandu  ","type":"Municipality","F2011_population":35056,"State":"Telangana","District":"Khammam"}},{"type":"Feature","id":23,"geometry":{"type":"Point","coordinates":[80.82000000000005,17.214463000000023]},"properties":{"OBJECTID":23,"name":"Sathupalli   ","type":"Nagar Panchayat","F2011_population":31857,"State":"Telangana","District":"Khammam"}},{"type":"Feature","id":24,"geometry":{"type":"Point","coordinates":[78.535900000000083,19.672030000000063]},"properties":{"OBJECTID":24,"name":"Adilabad   ","type":"Municipality","F2011_population":117167,"State":"Telangana","District":"Adilabad"}},{"type":"Feature","id":25,"geometry":{"type":"Point","coordinates":[79.428630000000055,18.870740000000069]},"properties":{"OBJECTID":25,"name":"Mancherial  ","type":"Municipality","F2011_population":53958,"State":"Telangana","District":"Adilabad"}},{"type":"Feature","id":26,"geometry":{"type":"Point","coordinates":[79.493000000000052,19.055770000000052]},"properties":{"OBJECTID":26,"name":"Bellampally","type":"Municipality","F2011_population":49764,"State":"Telangana","District":"Adilabad"}},{"type":"Feature","id":27,"geometry":{"type":"Point","coordinates":[78.345691854000052,19.091759573000047]},"properties":{"OBJECTID":27,"name":"Nirmal   ","type":"Municipality","F2011_population":57583,"State":"Telangana","District":"Adilabad"}},{"type":"Feature","id":28,"geometry":{"type":"Point","coordinates":[77.96336000000008,19.112850000000037]},"properties":{"OBJECTID":28,"name":"Bhainsa  ","type":"Municipality","F2011_population":89935,"State":"Telangana","District":"Adilabad"}},{"type":"Feature","id":29,"geometry":{"type":"Point","coordinates":[79.474750000000085,18.965060000000051]},"properties":{"OBJECTID":29,"name":"Mandamarri  ","type":"Municipality","F2011_population":88433,"State":"Telangana","District":"Adilabad"}},{"type":"Feature","id":30,"geometry":{"type":"Point","coordinates":[79.12856000000005,18.439150000000041]},"properties":{"OBJECTID":30,"name":"Karimnagar  ","type":"Municipal Corporation","F2011_population":283657,"State":"Telangana","District":"Karimnagar"}},{"type":"Feature","id":31,"geometry":{"type":"Point","coordinates":[78.475168900000085,17.361719400000027]},"properties":{"OBJECTID":31,"name":"Hyderabad  ","type":"Municipal Corporation","F2011_population":6732000,"State":"Telangana","District":"Hyderabad, Rangareddy"}},{"type":"Feature","id":32,"geometry":{"type":"Point","coordinates":[78.528113700000063,17.322613300000057]},"properties":{"OBJECTID":32,"name":"Meerpet  ","type":"Municipality","F2011_population":32013,"State":"Telangana","District":"Rangareddy"}},{"type":"Feature","id":33,"geometry":{"type":"Point","coordinates":[78.45011187700004,17.286139909000042]},"properties":{"OBJECTID":33,"name":"Jalapally  ","type":"Municipality","F2011_population":80374,"State":"Telangana","District":"Rangareddy"}},{"type":"Feature","id":34,"geometry":{"type":"Point","coordinates":[78.526534587000071,17.331982749000076]},"properties":{"OBJECTID":34,"name":"Jillelaguda  ","type":"Municipality","F2011_population":27461,"State":"Telangana","District":"Rangareddy"}},{"type":"Feature","id":35,"geometry":{"type":"Point","coordinates":[78.58427000000006,17.418770000000052]},"properties":{"OBJECTID":35,"name":"Boduppal  ","type":"Municipality","F2011_population":43692,"State":"Telangana","District":"Rangareddy"}},{"type":"Feature","id":36,"geometry":{"type":"Point","coordinates":[79.483230000000049,19.35176000000007]},"properties":{"OBJECTID":36,"name":"Kagaznagar  ","type":"Municipality","F2011_population":52352,"State":"Telangana","District":"Adilabad"}},{"type":"Feature","id":37,"geometry":{"type":"Point","coordinates":[78.647287628000072,17.192919999000026]},"properties":{"OBJECTID":37,"name":"Ibrahimpatnam  ","type":"Nagar Panchayat","F2011_population":26751,"State":"Telangana","District":"Rangareddy"}},{"type":"Feature","id":38,"geometry":{"type":"Point","coordinates":[78.493669000000068,17.630350000000078]},"properties":{"OBJECTID":38,"name":"Medchal  ","type":"Nagar Panchayat","F2011_population":35611,"State":"Telangana","District":"Rangareddy"}},{"type":"Feature","id":39,"geometry":{"type":"Point","coordinates":[77.576980000000049,17.248490000000061]},"properties":{"OBJECTID":39,"name":"Tandur  ","type":"Municipality","F2011_population":65115,"State":"Telangana","District":"Rangareddy"}},{"type":"Feature","id":40,"geometry":{"type":"Point","coordinates":[78.524796900000069,17.304845700000044]},"properties":{"OBJECTID":40,"name":"Badangpet  ","type":"Nagar Panchayat","F2011_population":64549,"State":"Telangana","District":"Rangareddy"}},{"type":"Feature","id":41,"geometry":{"type":"Point","coordinates":[78.887497000000053,17.517599000000075]},"properties":{"OBJECTID":41,"name":"Bhongir  ","type":"Municipality","F2011_population":53339,"State":"Telangana","District":"Nalgonda"}},{"type":"Feature","id":42,"geometry":{"type":"Point","coordinates":[78.608118475000083,17.397970362000024]},"properties":{"OBJECTID":42,"name":"Perrzadiguda  ","type":"Municipality","F2011_population":51689,"State":"Telangana","District":"Rangareddy"}},{"type":"Feature","id":43,"geometry":{"type":"Point","coordinates":[78.918197400000054,16.682878600000038]},"properties":{"OBJECTID":43,"name":"Devarakonda  ","type":"Nagar Panchayat","F2011_population":29731,"State":"Telangana","District":"Nalgonda"}},{"type":"Feature","id":44,"geometry":{"type":"Point","coordinates":[77.906029800000056,17.337029200000075]},"properties":{"OBJECTID":44,"name":"Vikarabad  ","type":"Municipality","F2011_population":53185,"State":"Telangana","District":"Rangareddy"}},{"type":"Feature","id":45,"geometry":{"type":"Point","coordinates":[78.642505056000061,17.319380653000053]},"properties":{"OBJECTID":45,"name":"Pedda amberpet  ","type":"Nagar Panchayat","F2011_population":27813,"State":"Telangana","District":"Rangareddy"}},{"type":"Feature","id":46,"geometry":{"type":"Point","coordinates":[79.96277340000006,16.999231200000054]},"properties":{"OBJECTID":46,"name":"Kodada  ","type":"Municipality","F2011_population":64234,"State":"Telangana","District":"Nalgonda"}},{"type":"Feature","id":47,"geometry":{"type":"Point","coordinates":[79.562470000000076,16.872200000000078]},"properties":{"OBJECTID":47,"name":"Miryalguda   ","type":"Municipality","F2011_population":104918,"State":"Telangana","District":"Nalgonda"}},{"type":"Feature","id":48,"geometry":{"type":"Point","coordinates":[79.279673000000059,17.064673900000059]},"properties":{"OBJECTID":48,"name":"Nalgonda   ","type":"Municipality","F2011_population":154326,"State":"Telangana","District":"Nalgonda"}},{"type":"Feature","id":49,"geometry":{"type":"Point","coordinates":[78.664311538000049,18.174110373000076]},"properties":{"OBJECTID":49,"name":"Dubbaka  ","type":"Nagar Panchayat","F2011_population":27600,"State":"Telangana","District":"Medak"}},{"type":"Feature","id":50,"geometry":{"type":"Point","coordinates":[79.631101700000045,17.143416800000068]},"properties":{"OBJECTID":50,"name":"Suryapet   ","type":"Municipality","F2011_population":106805,"State":"Telangana","District":"Nalgonda"}},{"type":"Feature","id":51,"geometry":{"type":"Point","coordinates":[78.682910000000049,17.848160000000064]},"properties":{"OBJECTID":51,"name":"Gajwel  ","type":"Nagar Panchayat","F2011_population":24961,"State":"Telangana","District":"Medak"}},{"type":"Feature","id":52,"geometry":{"type":"Point","coordinates":[78.068110000000047,17.835640000000069]},"properties":{"OBJECTID":52,"name":"Andole-jogipet  ","type":"Nagar Panchayat","F2011_population":18494,"State":"Telangana","District":"Medak"}},{"type":"Feature","id":53,"geometry":{"type":"Point","coordinates":[78.263199000000043,18.045799000000045]},"properties":{"OBJECTID":53,"name":"Medak   ","type":"Municipality","F2011_population":46880,"State":"Telangana","District":"Medak"}},{"type":"Feature","id":54,"geometry":{"type":"Point","coordinates":[78.082134181000072,17.613319389000026]},"properties":{"OBJECTID":54,"name":"Sangareddy   ","type":"Municipality","F2011_population":72344,"State":"Telangana","District":"Medak"}},{"type":"Feature","id":55,"geometry":{"type":"Point","coordinates":[79.870960000000082,16.894810000000064]},"properties":{"OBJECTID":55,"name":"Huzurnagar  ","type":"Nagar Panchayat","F2011_population":35850,"State":"Telangana","District":"Nalgonda"}},{"type":"Feature","id":56,"geometry":{"type":"Point","coordinates":[77.952630000000056,17.619250000000022]},"properties":{"OBJECTID":56,"name":"Sadasivapet  ","type":"Municipality","F2011_population":49920,"State":"Telangana","District":"Medak"}},{"type":"Feature","id":57,"geometry":{"type":"Point","coordinates":[77.607430000000079,17.681380000000047]},"properties":{"OBJECTID":57,"name":"Zaheerabad   ","type":"Municipality","F2011_population":71166,"State":"Telangana","District":"Medak"}},{"type":"Feature","id":58,"geometry":{"type":"Point","coordinates":[78.848580000000084,18.104830000000049]},"properties":{"OBJECTID":58,"name":"Siddipet   ","type":"Municipality","F2011_population":66737,"State":"Telangana","District":"Medak"}},{"type":"Feature","id":59,"geometry":{"type":"Point","coordinates":[77.66765958600007,16.016303441000048]},"properties":{"OBJECTID":59,"name":"Ieeja  ","type":"Nagar Panchayat","F2011_population":27921,"State":"Telangana","District":"Mahabubnagar"}},{"type":"Feature","id":60,"geometry":{"type":"Point","coordinates":[77.80089586500003,16.233250146000046]},"properties":{"OBJECTID":60,"name":"Gadwal   ","type":"Municipality","F2011_population":63177,"State":"Telangana","District":"Mahabubnagar"}},{"type":"Feature","id":61,"geometry":{"type":"Point","coordinates":[78.491430000000037,16.663960000000031]},"properties":{"OBJECTID":61,"name":"Kalwakurthy  ","type":"Nagar Panchayat","F2011_population":28060,"State":"Telangana","District":"Mahabubnagar"}},{"type":"Feature","id":62,"geometry":{"type":"Point","coordinates":[78.637580000000071,16.398200000000031]},"properties":{"OBJECTID":62,"name":"Achempeta","type":"Nagar Panchayat","F2011_population":20721,"State":"Telangana","District":"Mahabubnagar"}},{"type":"Feature","id":63,"geometry":{"type":"Point","coordinates":[78.320060000000069,16.106830000000059]},"properties":{"OBJECTID":63,"name":"Kollapur  ","type":"Nagar Panchayat","F2011_population":23041,"State":"Telangana","District":"Mahabubnagar"}},{"type":"Feature","id":64,"geometry":{"type":"Point","coordinates":[77.495400000000075,16.747990000000073]},"properties":{"OBJECTID":64,"name":"Narayanapet  ","type":"Municipality","F2011_population":41752,"State":"Telangana","District":"Mahabubnagar"}},{"type":"Feature","id":65,"geometry":{"type":"Point","coordinates":[77.999456000000066,16.755788400000029]},"properties":{"OBJECTID":65,"name":"Mahaboobnagar  ","type":"Municipality","F2011_population":190400,"State":"Telangana","District":"Mahabubnagar"}},{"type":"Feature","id":66,"geometry":{"type":"Point","coordinates":[78.065340000000049,16.359856200000024]},"properties":{"OBJECTID":66,"name":"Wanaparthy  ","type":"Municipality","F2011_population":60949,"State":"Telangana","District":"Mahabubnagar"}},{"type":"Feature","id":67,"geometry":{"type":"Point","coordinates":[78.282955400000048,18.79865140000004]},"properties":{"OBJECTID":67,"name":"Armoor   ","type":"Municipality","F2011_population":64023,"State":"Telangana","District":"Nizamabad"}},{"type":"Feature","id":68,"geometry":{"type":"Point","coordinates":[78.308921200000043,16.486629100000073]},"properties":{"OBJECTID":68,"name":"Nagarkurnool  ","type":"Nagar Panchayat","F2011_population":26801,"State":"Telangana","District":"Mahabubnagar"}},{"type":"Feature","id":69,"geometry":{"type":"Point","coordinates":[78.127727700000037,16.775086700000031]},"properties":{"OBJECTID":69,"name":"Badepally (jadcherla)","type":"Nagar Panchayat","F2011_population":32598,"State":"Telangana","District":"Mahabubnagar"}},{"type":"Feature","id":70,"geometry":{"type":"Point","coordinates":[77.888199000000043,18.646200000000022]},"properties":{"OBJECTID":70,"name":"Bodhan  ","type":"Municipality","F2011_population":77573,"State":"Telangana","District":"Nizamabad"}},{"type":"Feature","id":71,"geometry":{"type":"Point","coordinates":[78.09880000000004,18.67154000000005]},"properties":{"OBJECTID":71,"name":"Nizamabad  ","type":"Municipal Corporation","F2011_population":311152,"State":"Telangana","District":"Nizamabad"}},{"type":"Feature","id":72,"geometry":{"type":"Point","coordinates":[78.329958400000066,18.326702300000022]},"properties":{"OBJECTID":72,"name":"Kamareddy  ","type":"Municipality","F2011_population":80315,"State":"Telangana","District":"Nizamabad"}},{"type":"Feature","id":73,"geometry":{"type":"Point","coordinates":[78.206207864000078,17.06836648500007]},"properties":{"OBJECTID":73,"name":"Shadnagar  ","type":"Municipality","F2011_population":55740,"State":"Telangana","District":"Mahabubnagar"}},{"type":"Feature","id":74,"geometry":{"type":"Point","coordinates":[82.238090000000057,16.960360000000037]},"properties":{"OBJECTID":74,"name":"Kakinada","type":"Municipal Corporation","F2011_population":325855,"State":"Andhra Pradesh","District":"EAST GODAVARI"}},{"type":"Feature","id":75,"geometry":{"type":"Point","coordinates":[79.103302000000042,13.219500000000039]},"properties":{"OBJECTID":75,"name":"Chittoor","type":"Municipal Corporation","F2011_population":196601,"State":"Andhra Pradesh","District":"CHITTOOR"}},{"type":"Feature","id":76,"geometry":{"type":"Point","coordinates":[81.777840000000083,17.005170000000078]},"properties":{"OBJECTID":76,"name":"Rajahmundry","type":"Municipal Corporation","F2011_population":507284,"State":"Andhra Pradesh","District":"EAST GODAVARI"}},{"type":"Feature","id":77,"geometry":{"type":"Point","coordinates":[80.457290000000057,16.299740000000043]},"properties":{"OBJECTID":77,"name":"Guntur","type":"Municipal Corporation","F2011_population":743880,"State":"Andhra Pradesh","District":"GUNTUR"}},{"type":"Feature","id":78,"geometry":{"type":"Point","coordinates":[79.419890000000066,13.635510000000068]},"properties":{"OBJECTID":78,"name":"Tirupati","type":"Municipal Corporation","F2011_population":374260,"State":"Andhra Pradesh","District":"CHITTOOR"}},{"type":"Feature","id":79,"geometry":{"type":"Point","coordinates":[78.820142400000066,14.455783000000054]},"properties":{"OBJECTID":79,"name":"Kadapa","type":"Municipal Corporation","F2011_population":343054,"State":"Andhra Pradesh","District":"KADAPA"}},{"type":"Feature","id":80,"geometry":{"type":"Point","coordinates":[78.036176600000033,15.831203600000038]},"properties":{"OBJECTID":80,"name":"Kurnool","type":"Municipal Corporation","F2011_population":476540,"State":"Andhra Pradesh","District":"KURNOOL"}},{"type":"Feature","id":81,"geometry":{"type":"Point","coordinates":[81.138880000000086,16.187470000000076]},"properties":{"OBJECTID":81,"name":"Machilipatnam","type":"Municipal Corporation","F2011_population":169892,"State":"Andhra Pradesh","District":"KRISHNA"}},{"type":"Feature","id":82,"geometry":{"type":"Point","coordinates":[80.646600000000035,16.507450000000063]},"properties":{"OBJECTID":82,"name":"Vijayawada","type":"Municipal Corporation","F2011_population":1034358,"State":"Andhra Pradesh","District":"KRISHNA"}},{"type":"Feature","id":83,"geometry":{"type":"Point","coordinates":[79.986970000000042,14.449920000000077]},"properties":{"OBJECTID":83,"name":"Nellore","type":"Municipal Corporation","F2011_population":591644,"State":"Andhra Pradesh","District":"NELLORE"}},{"type":"Feature","id":84,"geometry":{"type":"Point","coordinates":[83.307612800000072,17.723293400000045]},"properties":{"OBJECTID":84,"name":"Visakhapatnam","type":"Municipal Corporation","F2011_population":1881686,"State":"Andhra Pradesh","District":"VISAKHAPATNAM"}},{"type":"Feature","id":85,"geometry":{"type":"Point","coordinates":[80.053179200000045,15.497523600000022]},"properties":{"OBJECTID":85,"name":"Ongole","type":"Municipal Corporation","F2011_population":251175,"State":"Andhra Pradesh","District":"PRAKASHAM"}},{"type":"Feature","id":86,"geometry":{"type":"Point","coordinates":[77.608130000000074,14.67784000000006]},"properties":{"OBJECTID":86,"name":"Anantapur","type":"Municipal Corporation","F2011_population":261004,"State":"Andhra Pradesh","District":"ANANTAPUR"}},{"type":"Feature","id":87,"geometry":{"type":"Point","coordinates":[83.897510000000068,18.29890000000006]},"properties":{"OBJECTID":87,"name":"Srikakulam","type":"Municipal Corporation","F2011_population":166533,"State":"Andhra Pradesh","District":"SRIKAKULAM"}},{"type":"Feature","id":88,"geometry":{"type":"Point","coordinates":[83.397387200000082,18.111241200000052]},"properties":{"OBJECTID":88,"name":"Vizianagaram","type":"Municipal Corporation","F2011_population":244598,"State":"Andhra Pradesh","District":"VIZIANAGARAM"}},{"type":"Feature","id":89,"geometry":{"type":"Point","coordinates":[81.104370000000074,16.713110000000029]},"properties":{"OBJECTID":89,"name":"Eluru","type":"Municipal Corporation","F2011_population":271651,"State":"Andhra Pradesh","District":"WEST GODAVARI"}},{"type":"Feature","id":90,"geometry":{"type":"Point","coordinates":[80.564598000000046,16.437599000000034]},"properties":{"OBJECTID":90,"name":"Mangalagiri Tadepalli","type":"Municipal Corporation","F2011_population":253831,"State":"Andhra Pradesh","District":"GUNTUR"}},{"type":"Feature","id":91,"geometry":{"type":"Point","coordinates":[81.523220000000038,16.540780000000041]},"properties":{"OBJECTID":91,"name":"Bhimavaram","type":"Municipality","F2011_population":165446,"State":"Andhra Pradesh","District":"WEST GODAVARI"}},{"type":"Feature","id":92,"geometry":{"type":"Point","coordinates":[81.531143300000053,16.807431400000041]},"properties":{"OBJECTID":92,"name":"Tadepalligudem","type":"Municipality","F2011_population":118891,"State":"Andhra Pradesh","District":"WEST GODAVARI"}},{"type":"Feature","id":93,"geometry":{"type":"Point","coordinates":[77.362440000000049,15.17112000000003]},"properties":{"OBJECTID":93,"name":"Guntakal","type":"Municipality","F2011_population":126270,"State":"Andhra Pradesh","District":"ANANTHAPUR"}},{"type":"Feature","id":94,"geometry":{"type":"Point","coordinates":[77.491430000000037,13.828070000000025]},"properties":{"OBJECTID":94,"name":"Hindupur","type":"Municipality","F2011_population":151677,"State":"Andhra Pradesh","District":"ANANTHAPUR"}},{"type":"Feature","id":95,"geometry":{"type":"Point","coordinates":[80.995550000000037,16.435470000000066]},"properties":{"OBJECTID":95,"name":"Gudivada","type":"Municipality","F2011_population":139574,"State":"Andhra Pradesh","District":"KRISHNA"}},{"type":"Feature","id":96,"geometry":{"type":"Point","coordinates":[78.502880000000062,13.55030000000005]},"properties":{"OBJECTID":96,"name":"Madanapalle","type":"Municipality","F2011_population":136414,"State":"Andhra Pradesh","District":"CHITTOOR"}},{"type":"Feature","id":97,"geometry":{"type":"Point","coordinates":[77.720350000000053,14.41435000000007]},"properties":{"OBJECTID":97,"name":"Dharmavaram","type":"Municipality","F2011_population":126958,"State":"Andhra Pradesh","District":"ANANTHAPUR"}},{"type":"Feature","id":98,"geometry":{"type":"Point","coordinates":[80.64218210000007,16.238349800000037]},"properties":{"OBJECTID":98,"name":"Tenali","type":"Municipality","F2011_population":164937,"State":"Andhra Pradesh","District":"GUNTUR"}},{"type":"Feature","id":99,"geometry":{"type":"Point","coordinates":[78.483600000000081,15.477990000000034]},"properties":{"OBJECTID":99,"name":"Nandyal","type":"Municipality","F2011_population":214608,"State":"Andhra Pradesh","District":"KURNOOL"}},{"type":"Feature","id":100,"geometry":{"type":"Point","coordinates":[77.274950000000047,15.627880000000062]},"properties":{"OBJECTID":100,"name":"Adoni","type":"Municipality","F2011_population":166344,"State":"Andhra Pradesh","District":"KURNOOL"}},{"type":"Feature","id":101,"geometry":{"type":"Point","coordinates":[78.548130000000072,14.750200000000063]},"properties":{"OBJECTID":101,"name":"Proddatur","type":"Municipality","F2011_population":162717,"State":"Andhra Pradesh","District":"KADAPA"}},{"type":"Feature","id":102,"geometry":{"type":"Point","coordinates":[78.159820000000082,14.111680000000035]},"properties":{"OBJECTID":102,"name":"Kadiri","type":"Municipality","F2011_population":89429,"State":"Andhra Pradesh","District":"ANANTHAPUR"}},{"type":"Feature","id":103,"geometry":{"type":"Point","coordinates":[83.425690000000031,18.783920000000023]},"properties":{"OBJECTID":103,"name":"Parvathipuram","type":"Municipality","F2011_population":53844,"State":"Andhra Pradesh","District":"VIZIANAGARAM"}},{"type":"Feature","id":104,"geometry":{"type":"Point","coordinates":[78.010310000000061,14.90832000000006]},"properties":{"OBJECTID":104,"name":"Tadipatri","type":"Municipality","F2011_population":108171,"State":"Andhra Pradesh","District":"ANANTHAPUR"}},{"type":"Feature","id":105,"geometry":{"type":"Point","coordinates":[81.717499000000032,16.521200000000022]},"properties":{"OBJECTID":105,"name":"Palacole","type":"Municipality","F2011_population":98357,"State":"Andhra Pradesh","District":"WEST GODAVARI"}},{"type":"Feature","id":106,"geometry":{"type":"Point","coordinates":[82.006090000000086,16.578680000000077]},"properties":{"OBJECTID":106,"name":"Amalapuram","type":"Municipality","F2011_population":53231,"State":"Andhra Pradesh","District":"EAST GODAVARI"}},{"type":"Feature","id":107,"geometry":{"type":"Point","coordinates":[81.674103000000059,16.752300000000048]},"properties":{"OBJECTID":107,"name":"Tanuku","type":"Municipality","F2011_population":90430,"State":"Andhra Pradesh","District":"WEST GODAVARI"}},{"type":"Feature","id":108,"geometry":{"type":"Point","coordinates":[80.467430000000036,15.904220000000066]},"properties":{"OBJECTID":108,"name":"Bapatla","type":"Municipality","F2011_population":88961,"State":"Andhra Pradesh","District":"GUNTUR"}},{"type":"Feature","id":109,"geometry":{"type":"Point","coordinates":[81.700996000000032,16.434200000000033]},"properties":{"OBJECTID":109,"name":"Narsapur","type":"Municipality","F2011_population":58770,"State":"Andhra Pradesh","District":"WEST GODAVARI"}},{"type":"Feature","id":110,"geometry":{"type":"Point","coordinates":[80.699985800000036,16.473347000000047]},"properties":{"OBJECTID":110,"name":"YSR\u00A0\u00A0\u00A0Tadigadapa","type":"Municipality","F2011_population":126190,"State":"Andhra Pradesh","District":"KRISHNA"}},{"type":"Feature","id":111,"geometry":{"type":"Point","coordinates":[80.049270000000035,16.234880000000032]},"properties":{"OBJECTID":111,"name":"Narasaraopeta","type":"Municipality","F2011_population":125123,"State":"Andhra Pradesh","District":"GUNTUR"}},{"type":"Feature","id":112,"geometry":{"type":"Point","coordinates":[79.852100000000064,14.150930000000074]},"properties":{"OBJECTID":112,"name":"Gudur","type":"Municipality","F2011_population":93191,"State":"Andhra Pradesh","District":"NELLORE"}},{"type":"Feature","id":113,"geometry":{"type":"Point","coordinates":[80.167050000000074,16.089870000000076]},"properties":{"OBJECTID":113,"name":"Chilakaluripet","type":"Municipality","F2011_population":131761,"State":"Andhra Pradesh","District":"GUNTUR"}},{"type":"Feature","id":114,"geometry":{"type":"Point","coordinates":[79.994490000000042,14.916300000000035]},"properties":{"OBJECTID":114,"name":"Kavali","type":"Municipality","F2011_population":97750,"State":"Andhra Pradesh","District":"NELLORE"}},{"type":"Feature","id":115,"geometry":{"type":"Point","coordinates":[80.352190000000064,15.82385000000005]},"properties":{"OBJECTID":115,"name":"Chirala","type":"Municipality","F2011_population":87200,"State":"Andhra Pradesh","District":"PRAKASHAM"}},{"type":"Feature","id":116,"geometry":{"type":"Point","coordinates":[77.481598000000076,15.767600000000073]},"properties":{"OBJECTID":116,"name":"Yemmiganur","type":"Municipality","F2011_population":95149,"State":"Andhra Pradesh","District":"KURNOOL"}},{"type":"Feature","id":117,"geometry":{"type":"Point","coordinates":[78.750560000000064,14.057230000000061]},"properties":{"OBJECTID":117,"name":"Rayachoty","type":"Municipality","F2011_population":91234,"State":"Andhra Pradesh","District":"KADAPA"}},{"type":"Feature","id":118,"geometry":{"type":"Point","coordinates":[83.903999000000056,18.409500000000037]},"properties":{"OBJECTID":118,"name":"Amadalavalasa","type":"Municipality","F2011_population":39799,"State":"Andhra Pradesh","District":"SRIKAKULAM"}},{"type":"Feature","id":119,"geometry":{"type":"Point","coordinates":[79.701430000000073,13.75514000000004]},"properties":{"OBJECTID":119,"name":"Srikalahasti","type":"Municipality","F2011_population":90692,"State":"Andhra Pradesh","District":"CHITTOOR"}},{"type":"Feature","id":120,"geometry":{"type":"Point","coordinates":[83.345596000000057,18.576401000000033]},"properties":{"OBJECTID":120,"name":"Bobbili","type":"Municipality","F2011_population":56819,"State":"Andhra Pradesh","District":"VIZIANAGARAM"}},{"type":"Feature","id":121,"geometry":{"type":"Point","coordinates":[84.41110962700003,18.77203866900004]},"properties":{"OBJECTID":121,"name":"Palasa\u00A0\u00A0\u00A0Kasibugga","type":"Municipality","F2011_population":57507,"State":"Andhra Pradesh","District":"SRIKAKULAM"}},{"type":"Feature","id":122,"geometry":{"type":"Point","coordinates":[83.20548000000008,18.517160000000047]},"properties":{"OBJECTID":122,"name":"Salur","type":"Municipality","F2011_population":49500,"State":"Andhra Pradesh","District":"VIZIANAGARAM"}},{"type":"Feature","id":123,"geometry":{"type":"Point","coordinates":[82.546070000000043,17.359050000000025]},"properties":{"OBJECTID":123,"name":"Tuni","type":"Municipality","F2011_population":53425,"State":"Andhra Pradesh","District":"EAST GODAVARI"}},{"type":"Feature","id":124,"geometry":{"type":"Point","coordinates":[82.176390000000083,17.056750000000022]},"properties":{"OBJECTID":124,"name":"Samalkot","type":"Municipality","F2011_population":56864,"State":"Andhra Pradesh","District":"EAST GODAVARI"}},{"type":"Feature","id":125,"geometry":{"type":"Point","coordinates":[81.929210000000069,16.862540000000024]},"properties":{"OBJECTID":125,"name":"Mandapeta","type":"Municipality","F2011_population":53633,"State":"Andhra Pradesh","District":"EAST GODAVARI"}},{"type":"Feature","id":126,"geometry":{"type":"Point","coordinates":[82.252840000000049,17.116800000000069]},"properties":{"OBJECTID":126,"name":"Pithapuram","type":"Municipality","F2011_population":52360,"State":"Andhra Pradesh","District":"EAST GODAVARI"}},{"type":"Feature","id":127,"geometry":{"type":"Point","coordinates":[82.028710000000046,16.83636000000007]},"properties":{"OBJECTID":127,"name":"Ramachandrapuram","type":"Municipality","F2011_population":43657,"State":"Andhra Pradesh","District":"EAST GODAVARI"}},{"type":"Feature","id":128,"geometry":{"type":"Point","coordinates":[82.138360000000034,17.07701000000003]},"properties":{"OBJECTID":128,"name":"Peddapuram","type":"Municipality","F2011_population":49477,"State":"Andhra Pradesh","District":"EAST GODAVARI"}},{"type":"Feature","id":129,"geometry":{"type":"Point","coordinates":[81.672220000000038,16.905720000000031]},"properties":{"OBJECTID":129,"name":"Nidadavole","type":"Municipality","F2011_population":43809,"State":"Andhra Pradesh","District":"WEST GODAVARI"}},{"type":"Feature","id":130,"geometry":{"type":"Point","coordinates":[80.829580000000078,16.018400000000042]},"properties":{"OBJECTID":130,"name":"Repalle","type":"Municipality","F2011_population":50866,"State":"Andhra Pradesh","District":"GUNTUR"}},{"type":"Feature","id":131,"geometry":{"type":"Point","coordinates":[81.29720300200006,17.123566954000069]},"properties":{"OBJECTID":131,"name":"Jangareddy Gudem","type":"Municipality","F2011_population":48994,"State":"Andhra Pradesh","District":"WEST GODAVARI"}},{"type":"Feature","id":132,"geometry":{"type":"Point","coordinates":[80.55139900000006,16.066500000000076]},"properties":{"OBJECTID":132,"name":"Ponnur","type":"Municipality","F2011_population":71571,"State":"Andhra Pradesh","District":"GUNTUR"}},{"type":"Feature","id":133,"geometry":{"type":"Point","coordinates":[80.845930000000067,16.788540000000069]},"properties":{"OBJECTID":133,"name":"Nuzivid","type":"Municipality","F2011_population":58590,"State":"Andhra Pradesh","District":"KRISHNA"}},{"type":"Feature","id":134,"geometry":{"type":"Point","coordinates":[79.435330000000079,16.476350000000025]},"properties":{"OBJECTID":134,"name":"Macherla","type":"Municipality","F2011_population":57290,"State":"Andhra Pradesh","District":"GUNTUR"}},{"type":"Feature","id":135,"geometry":{"type":"Point","coordinates":[80.152210000000082,16.39381000000003]},"properties":{"OBJECTID":135,"name":"Sattenapalli","type":"Municipality","F2011_population":56721,"State":"Andhra Pradesh","District":"GUNTUR"}},{"type":"Feature","id":136,"geometry":{"type":"Point","coordinates":[79.739640000000065,16.053100000000029]},"properties":{"OBJECTID":136,"name":"Vinukonda","type":"Municipality","F2011_population":59725,"State":"Andhra Pradesh","District":"GUNTUR"}},{"type":"Feature","id":137,"geometry":{"type":"Point","coordinates":[79.886320000000069,16.479260000000068]},"properties":{"OBJECTID":137,"name":"Piduguralla","type":"Municipality","F2011_population":63103,"State":"Andhra Pradesh","District":"GUNTUR"}},{"type":"Feature","id":138,"geometry":{"type":"Point","coordinates":[79.903900000000078,15.215420000000051]},"properties":{"OBJECTID":138,"name":"Kandukur","type":"Municipality","F2011_population":60672,"State":"Andhra Pradesh","District":"PRAKASHAM"}},{"type":"Feature","id":139,"geometry":{"type":"Point","coordinates":[79.290901000000076,15.730000000000075]},"properties":{"OBJECTID":139,"name":"Markapur","type":"Municipality","F2011_population":71092,"State":"Andhra Pradesh","District":"PRAKASHAM"}},{"type":"Feature","id":140,"geometry":{"type":"Point","coordinates":[77.871500000000083,15.395200000000045]},"properties":{"OBJECTID":140,"name":"Dhone","type":"Municipality","F2011_population":59272,"State":"Andhra Pradesh","District":"KURNOOL"}},{"type":"Feature","id":141,"geometry":{"type":"Point","coordinates":[78.573955200000057,13.364633100000049]},"properties":{"OBJECTID":141,"name":"Punganur","type":"Municipality","F2011_population":56223,"State":"Andhra Pradesh","District":"CHITTOOR"}},{"type":"Feature","id":142,"geometry":{"type":"Point","coordinates":[78.265690000000063,15.85668000000004]},"properties":{"OBJECTID":142,"name":"Nandikotkur","type":"Municipality","F2011_population":46953,"State":"Andhra Pradesh","District":"KURNOOL"}},{"type":"Feature","id":143,"geometry":{"type":"Point","coordinates":[76.852410000000077,14.699710000000039]},"properties":{"OBJECTID":143,"name":"Rayadurg","type":"Municipality","F2011_population":61749,"State":"Andhra Pradesh","District":"ANANTHAPUR"}},{"type":"Feature","id":144,"geometry":{"type":"Point","coordinates":[78.225020000000029,14.421390000000031]},"properties":{"OBJECTID":144,"name":"Pulivendula","type":"Municipality","F2011_population":65706,"State":"Andhra Pradesh","District":"KADAPA"}},{"type":"Feature","id":145,"geometry":{"type":"Point","coordinates":[78.507369923000056,15.13223705300004]},"properties":{"OBJECTID":145,"name":"Allagadda","type":"Municipality","F2011_population":42404,"State":"Andhra Pradesh","District":"KURNOOL"}},{"type":"Feature","id":146,"geometry":{"type":"Point","coordinates":[79.062880000000064,14.745100000000036]},"properties":{"OBJECTID":146,"name":"Badvel","type":"Municipality","F2011_population":70626,"State":"Andhra Pradesh","District":"KADAPA"}},{"type":"Feature","id":147,"geometry":{"type":"Point","coordinates":[80.098099757000057,16.891945639000028]},"properties":{"OBJECTID":147,"name":"Jaggiahpeta","type":"Municipality","F2011_population":53530,"State":"Andhra Pradesh","District":"KRISHNA"}},{"type":"Feature","id":148,"geometry":{"type":"Point","coordinates":[79.158960000000036,14.195440000000076]},"properties":{"OBJECTID":148,"name":"Rajampeta","type":"Municipality","F2011_population":47220,"State":"Andhra Pradesh","District":"KADAPA"}},{"type":"Feature","id":149,"geometry":{"type":"Point","coordinates":[83.659570000000031,18.449090000000069]},"properties":{"OBJECTID":149,"name":"Rajam","type":"Municipality","F2011_population":42197,"State":"Andhra Pradesh","District":"SRIKAKULAM"}},{"type":"Feature","id":150,"geometry":{"type":"Point","coordinates":[82.612450000000081,17.66709000000003]},"properties":{"OBJECTID":150,"name":"Narsipatnam","type":"Municipality","F2011_population":61540,"State":"Andhra Pradesh","District":"VISAKHAPATNAM"}},{"type":"Feature","id":151,"geometry":{"type":"Point","coordinates":[81.729340000000036,17.016200000000026]},"properties":{"OBJECTID":151,"name":"Kovvur","type":"Municipality","F2011_population":39667,"State":"Andhra Pradesh","District":"WEST GODAVARI"}},{"type":"Feature","id":152,"geometry":{"type":"Point","coordinates":[82.857490000000041,17.549070000000029]},"properties":{"OBJECTID":152,"name":"Yellamanchali","type":"Municipality","F2011_population":46159,"State":"Andhra Pradesh","District":"VISAKHAPATNAM"}},{"type":"Feature","id":153,"geometry":{"type":"Point","coordinates":[84.68721000000005,19.113930000000039]},"properties":{"OBJECTID":153,"name":"Ichapuram","type":"Municipality","F2011_population":36493,"State":"Andhra Pradesh","District":"SRIKAKULAM"}},{"type":"Feature","id":154,"geometry":{"type":"Point","coordinates":[81.144096000000047,16.252001000000064]},"properties":{"OBJECTID":154,"name":"Pedana","type":"Municipality","F2011_population":30721,"State":"Andhra Pradesh","District":"KRISHNA"}},{"type":"Feature","id":155,"geometry":{"type":"Point","coordinates":[79.626130000000046,14.615860000000055]},"properties":{"OBJECTID":155,"name":"Atmakur","type":"Municipality","F2011_population":30556,"State":"Andhra Pradesh","District":"NELLORE"}},{"type":"Feature","id":156,"geometry":{"type":"Point","coordinates":[79.580320000000029,13.960050000000024]},"properties":{"OBJECTID":156,"name":"Venkatagiri","type":"Municipality","F2011_population":51708,"State":"Andhra Pradesh","District":"NELLORE"}},{"type":"Feature","id":157,"geometry":{"type":"Point","coordinates":[80.016670000000033,13.700000000000045]},"properties":{"OBJECTID":157,"name":"Sullurpet","type":"Municipality","F2011_population":47130,"State":"Andhra Pradesh","District":"NELLORE"}},{"type":"Feature","id":158,"geometry":{"type":"Point","coordinates":[80.542440000000056,16.619890000000055]},"properties":{"OBJECTID":158,"name":"Kondapalli","type":"Municipality","F2011_population":63578,"State":"Andhra Pradesh","District":"KRISHNA"}},{"type":"Feature","id":159,"geometry":{"type":"Point","coordinates":[79.901155096000082,13.906078784000044]},"properties":{"OBJECTID":159,"name":"Naidupet","type":"Municipality","F2011_population":49778,"State":"Andhra Pradesh","District":"NELLORE"}},{"type":"Feature","id":160,"geometry":{"type":"Point","coordinates":[77.637760000000071,15.118360000000052]},"properties":{"OBJECTID":160,"name":"Gooty","type":"Municipality","F2011_population":48838,"State":"Andhra Pradesh","District":"ANANTHAPUR"}},{"type":"Feature","id":161,"geometry":{"type":"Point","coordinates":[78.744140000000073,13.198639000000071]},"properties":{"OBJECTID":161,"name":"Palamaneru","type":"Municipality","F2011_population":51163,"State":"Andhra Pradesh","District":"CHITTOOR"}},{"type":"Feature","id":162,"geometry":{"type":"Point","coordinates":[79.553140000000042,13.441890000000058]},"properties":{"OBJECTID":162,"name":"Puttur","type":"Municipality","F2011_population":54092,"State":"Andhra Pradesh","District":"CHITTOOR"}},{"type":"Feature","id":163,"geometry":{"type":"Point","coordinates":[79.585800000000063,13.319600000000037]},"properties":{"OBJECTID":163,"name":"Nagari","type":"Municipality","F2011_population":62253,"State":"Andhra Pradesh","District":"CHITTOOR"}},{"type":"Feature","id":164,"geometry":{"type":"Point","coordinates":[78.344214600000043,12.740934700000025]},"properties":{"OBJECTID":164,"name":"Kuppam","type":"Municipality","F2011_population":46598,"State":"Andhra Pradesh","District":"CHITTOOR"}},{"type":"Feature","id":165,"geometry":{"type":"Point","coordinates":[78.587040000000059,15.881090000000029]},"properties":{"OBJECTID":165,"name":"Atmakur","type":"Municipality","F2011_population":45703,"State":"Andhra Pradesh","District":"KURNOOL"}},{"type":"Feature","id":166,"geometry":{"type":"Point","coordinates":[78.731540000000052,14.726200000000063]},"properties":{"OBJECTID":166,"name":"Mydukur","type":"Municipality","F2011_population":45790,"State":"Andhra Pradesh","District":"KADAPA"}},{"type":"Feature","id":167,"geometry":{"type":"Point","coordinates":[77.10552000000007,14.545190000000048]},"properties":{"OBJECTID":167,"name":"Kalyandurgam","type":"Municipality","F2011_population":44959,"State":"Andhra Pradesh","District":"ANANTHAPUR"}},{"type":"Feature","id":168,"geometry":{"type":"Point","coordinates":[82.284730000000081,17.157480000000078]},"properties":{"OBJECTID":168,"name":"Gollaprollu","type":"Nagar Panchayat","F2011_population":23882,"State":"Andhra Pradesh","District":"EAST GODAVARI"}},{"type":"Feature","id":169,"geometry":{"type":"Point","coordinates":[83.44727000000006,18.156190000000038]},"properties":{"OBJECTID":169,"name":"Nellimarla","type":"Nagar Panchayat","F2011_population":26259,"State":"Andhra Pradesh","District":"VIZIANAGARAM"}},{"type":"Feature","id":170,"geometry":{"type":"Point","coordinates":[83.755680000000041,18.603740000000073]},"properties":{"OBJECTID":170,"name":"Palakonda","type":"Nagar Panchayat","F2011_population":31572,"State":"Andhra Pradesh","District":"SRIKAKULAM"}},{"type":"Feature","id":171,"geometry":{"type":"Point","coordinates":[81.373252000000036,16.580925000000036]},"properties":{"OBJECTID":171,"name":"Akivedu","type":"Nagar Panchayat","F2011_population":32412,"State":"Andhra Pradesh","District":"WEST GODAVARI"}},{"type":"Feature","id":172,"geometry":{"type":"Point","coordinates":[82.105180000000075,17.287800000000061]},"properties":{"OBJECTID":172,"name":"Yeleswaram","type":"Nagar Panchayat","F2011_population":32084,"State":"Andhra Pradesh","District":"EAST GODAVARI"}},{"type":"Feature","id":173,"geometry":{"type":"Point","coordinates":[80.983560000000068,17.068590000000029]},"properties":{"OBJECTID":173,"name":"Chinthalapudi","type":"Nagar Panchayat","F2011_population":29952,"State":"Andhra Pradesh","District":"WEST GODAVARI"}},{"type":"Feature","id":174,"geometry":{"type":"Point","coordinates":[80.843569900000034,16.363002800000061]},"properties":{"OBJECTID":174,"name":"Vuyyuru","type":"Nagar Panchayat","F2011_population":46490,"State":"Andhra Pradesh","District":"KRISHNA"}},{"type":"Feature","id":175,"geometry":{"type":"Point","coordinates":[80.610700000000065,17.113150000000076]},"properties":{"OBJECTID":175,"name":"Tiruvuru","type":"Nagar Panchayat","F2011_population":34623,"State":"Andhra Pradesh","District":"KRISHNA"}},{"type":"Feature","id":176,"geometry":{"type":"Point","coordinates":[79.736420000000066,16.594910000000027]},"properties":{"OBJECTID":176,"name":"Dachepalli","type":"Nagar Panchayat","F2011_population":36590,"State":"Andhra Pradesh","District":"GUNTUR"}},{"type":"Feature","id":177,"geometry":{"type":"Point","coordinates":[80.285960000000046,16.771700000000067]},"properties":{"OBJECTID":177,"name":"Nandigama","type":"Nagar Panchayat","F2011_population":44359,"State":"Andhra Pradesh","District":"KRISHNA"}},{"type":"Feature","id":178,"geometry":{"type":"Point","coordinates":[79.635259308000059,16.558957679000059]},"properties":{"OBJECTID":178,"name":"Gurajala","type":"Nagar Panchayat","F2011_population":26190,"State":"Andhra Pradesh","District":"GUNTUR"}},{"type":"Feature","id":179,"geometry":{"type":"Point","coordinates":[79.973380000000077,15.810610000000054]},"properties":{"OBJECTID":179,"name":"Adanki","type":"Nagar Panchayat","F2011_population":40353,"State":"Andhra Pradesh","District":"PRAKASHAM"}},{"type":"Feature","id":180,"geometry":{"type":"Point","coordinates":[78.923065000000065,15.382261100000051]},"properties":{"OBJECTID":180,"name":"Giddalur","type":"Nagar Panchayat","F2011_population":37674,"State":"Andhra Pradesh","District":"PRAKASHAM"}},{"type":"Feature","id":181,"geometry":{"type":"Point","coordinates":[79.868792000000042,15.582682000000034]},"properties":{"OBJECTID":181,"name":"Chimakurthy","type":"Nagar Panchayat","F2011_population":30279,"State":"Andhra Pradesh","District":"PRAKASHAM"}},{"type":"Feature","id":182,"geometry":{"type":"Point","coordinates":[79.685005900000078,15.772712500000068]},"properties":{"OBJECTID":182,"name":"Darsi","type":"Nagar Panchayat","F2011_population":33418,"State":"Andhra Pradesh","District":"PRAKASHAM"}},{"type":"Feature","id":183,"geometry":{"type":"Point","coordinates":[79.501240000000053,15.407653500000038]},"properties":{"OBJECTID":183,"name":"Kanigiri","type":"Nagar Panchayat","F2011_population":44755,"State":"Andhra Pradesh","District":"PRAKASHAM"}},{"type":"Feature","id":184,"geometry":{"type":"Point","coordinates":[79.619093000000078,15.611982900000044]},"properties":{"OBJECTID":184,"name":"Podili","type":"Nagar Panchayat","F2011_population":38489,"State":"Andhra Pradesh","District":"PRAKASHAM"}},{"type":"Feature","id":185,"geometry":{"type":"Point","coordinates":[80.054120000000069,14.683430000000044]},"properties":{"OBJECTID":185,"name":"Alluru","type":"Nagar Panchayat","F2011_population":26392,"State":"Andhra Pradesh","District":"NELLORE"}},{"type":"Feature","id":186,"geometry":{"type":"Point","coordinates":[79.882980000000032,14.544880000000035]},"properties":{"OBJECTID":186,"name":"Buchireddypalem","type":"Nagar Panchayat","F2011_population":38405,"State":"Andhra Pradesh","District":"NELLORE"}},{"type":"Feature","id":187,"geometry":{"type":"Point","coordinates":[77.27063000000004,13.940950000000043]},"properties":{"OBJECTID":187,"name":"Madakasira","type":"Nagar Panchayat","F2011_population":21464,"State":"Andhra Pradesh","District":"ANANTHAPUR"}},{"type":"Feature","id":188,"geometry":{"type":"Point","coordinates":[82.107420000000047,16.644030000000043]},"properties":{"OBJECTID":188,"name":"Mumidivaram","type":"Nagar Panchayat","F2011_population":25355,"State":"Andhra Pradesh","District":"EAST GODAVARI"}},{"type":"Feature","id":189,"geometry":{"type":"Point","coordinates":[77.594730000000084,14.082860000000039]},"properties":{"OBJECTID":189,"name":"Penukonda","type":"Nagar Panchayat","F2011_population":27382,"State":"Andhra Pradesh","District":"ANANTHAPUR"}},{"type":"Feature","id":190,"geometry":{"type":"Point","coordinates":[77.81170000000003,14.165200000000027]},"properties":{"OBJECTID":190,"name":"Puttaparthi","type":"Nagar Panchayat","F2011_population":30782,"State":"Andhra Pradesh","District":"ANANTHAPUR"}},{"type":"Feature","id":191,"geometry":{"type":"Point","coordinates":[77.809337000000085,15.775687000000062]},"properties":{"OBJECTID":191,"name":"Gudur","type":"Nagar Panchayat","F2011_population":22270,"State":"Andhra Pradesh","District":"KURNOOL"}},{"type":"Feature","id":192,"geometry":{"type":"Point","coordinates":[78.147970000000043,15.451440000000048]},"properties":{"OBJECTID":192,"name":"Bethamcherla","type":"Nagar Panchayat","F2011_population":39226,"State":"Andhra Pradesh","District":"KURNOOL"}},{"type":"Feature","id":193,"geometry":{"type":"Point","coordinates":[78.383140000000083,14.846770000000049]},"properties":{"OBJECTID":193,"name":"Jammalamadugu","type":"Nagar Panchayat","F2011_population":46069,"State":"Andhra Pradesh","District":"KADAPA"}},{"type":"Feature","id":194,"geometry":{"type":"Point","coordinates":[78.539740000000052,14.63853000000006]},"properties":{"OBJECTID":194,"name":"Yerraguntla","type":"Nagar Panchayat","F2011_population":32574,"State":"Andhra Pradesh","District":"KADAPA"}},{"type":"Feature","id":195,"geometry":{"type":"Point","coordinates":[78.262390955000058,13.657746049000025]},"properties":{"OBJECTID":195,"name":"B.Kothakota","type":"Nagar Panchayat","F2011_population":25536,"State":"Andhra Pradesh","District":"CHITTOOR"}},{"type":"Feature","id":196,"geometry":{"type":"Point","coordinates":[78.669480000000078,14.598300000000052]},"properties":{"OBJECTID":196,"name":"Kamalapuram","type":"Nagar Panchayat","F2011_population":20414,"State":"Andhra Pradesh","District":"KADAPA"}}]}